{
  "locations": [
    {
      "name": "ปราสาทเปือยน้อย",
      "address": "เปือยน้อย อ.เปือยน้อย จ.ขอนแก่น 40340",
      "latitude": 15.88,
      "longitude": 102.9088889
    },
    {
      "name": "จิตรกรรมฝาผนังวัดสระบัวแก้ว",
      "address": "หันโจด อ.หนองสองห้อง จ.ขอนแก่น 40190",
      "latitude": 15.7511111,
      "longitude": 102.7486111
    },
    {
      "name": "วัดมัชฌิมวิทยาราม",
      "address": "",
      "latitude": 16.0094444,
      "longitude": 102.8161111
    },
    {
      "name": "ศูนย์วิทยาศาสตร์เพื่อการศึกษาขอนแก่น",
      "address": "มิตรภาพ ในเมือง อ.บ้านไผ่ จังหวัดขอนแก่น 40110",
      "latitude": 16.0508333,
      "longitude": 102.7152778
    },
    {
      "name": "ศาลาไหมไทย",
      "address": "ชนบท อ.ชนบท จ.ขอนแก่น 40180",
      "latitude": 16.0908333,
      "longitude": 102.6094444
    },
    {
      "name": "วัดป่ามัญจาคีรี",
      "address": "กุดเค้า อ.มัญจาคีรี จ.ขอนแก่น 40160",
      "latitude": 16.1186111,
      "longitude": 102.5333333
    },
    {
      "name": "หมู่บ้านเต่า",
      "address": "สวนหม่อน อ.มัญจาคีรี จ.ขอนแก่น 40160",
      "latitude": 16.1580556,
      "longitude": 102.5525
    },
    {
      "name": "วัดสระทองบ้านบัว",
      "address": "กุดเค้า อ.มัญจาคีรี จ.ขอนแก่น 40160",
      "latitude": 16.1405556,
      "longitude": 102.5208333
    },
    {
      "name": "วัดอุดมคงคาคีรีเขต",
      "address": "บ้านโคก กิ่งอ.โคกโพธิ์ไชย จ.ขอนแก่น 40160",
      "latitude": 16.1577778,
      "longitude": 102.3708333
    },
    {
      "name": "สวนสาธารณะเฉลิมพระเกียรติ 72 พรรษา มหาราชินี",
      "address": "หมู่ 7 บ้านหนองบัวดีหมี ต.ท่าพระ อ.เมืองขอนแก่น จ.ขอนแก่น",
      "latitude": 16.4175,
      "longitude": 102.8419444
    },
    {
      "name": "วัดหนองแวงเมืองเก่า",
      "address": "",
      "latitude": 16.4091667,
      "longitude": 102.8352778
    },
    {
      "name": "โฮงมูนมังเมืองขอนแก่น",
      "address": "ในเมือง อ.เมืองขอนแก่น จ.ขอนแก่น 40000",
      "latitude": 16.4202778,
      "longitude": 102.8386111
    },
    {
      "name": "โรงแรมโฆษะ",
      "address": "",
      "latitude": 16.4291667,
      "longitude": 102.8319444
    },
    {
      "name": "ศาลเจ้าพ่อเทพารักษ์หลักเมือง",
      "address": "",
      "latitude": 16.4308333,
      "longitude": 102.8283333
    },
    {
      "name": "พิพิธภัณฑสถานแห่งชาติ ขอนแก่น",
      "address": "ถนนหลังศูนย์ราชการ ในเมือง อ.เมืองขอนแก่น จ.ขอนแก่น 40000",
      "latitude": 16.4461111,
      "longitude": 102.8383333
    },
    {
      "name": "หอศิลปวัฒนธรรม",
      "address": "ศิลา อ.เมืองขอนแก่น จ.ขอนแก่น 40000",
      "latitude": 16.4538889,
      "longitude": 102.815
    },
    {
      "name": "มหาวิทยาลัยขอนแก่น",
      "address": "",
      "latitude": 16.4622222,
      "longitude": 102.8111111
    },
    {
      "name": "วัดทุ่งเศรษฐี",
      "address": "",
      "latitude": 16.4091667,
      "longitude": 102.8841667
    },
    {
      "name": "วัดป่าแสงอรุณ",
      "address": "",
      "latitude": 16.4252778,
      "longitude": 102.8858333
    },
    {
      "name": "วัดไชยศรี",
      "address": "สาวะถี อ.เมืองขอนแก่น จ.ขอนแก่น 40000",
      "latitude": 16.5088889,
      "longitude": 102.6969444
    },
    {
      "name": "พระธาตุขามแก่น",
      "address": "บ้านขาม อ.น้ำพอง จ.ขอนแก่น 40140 ประเทศไทย",
      "latitude": 16.5627778,
      "longitude": 102.9513889
    },
    {
      "name": "วัดกู่ประภาชัย",
      "address": "",
      "latitude": 16.6108333,
      "longitude": 102.9291667
    },
    {
      "name": "หมู่บ้านงูจงอาง",
      "address": "ทรายมูล อ.น้ำพอง จ.ขอนแก่น 40140",
      "latitude": 16.6941667,
      "longitude": 102.9252778
    },
    {
      "name": "ค่ายเปรมติณสูลานนท์",
      "address": "พังทุย อ.น้ำพอง จ.ขอนแก่น 40140",
      "latitude": 16.7072222,
      "longitude": 102.9577778
    },
    {
      "name": "น้ำพอง",
      "address": "อ.น้ำพอง จ.ขอนแก่น ประเทศไทย",
      "latitude": 16.7283333,
      "longitude": 102.8022222
    },
    {
      "name": "อุทยานแห่งชาติภูเก้า-ภูพานคำ",
      "address": "บ้านค้อ อ.โนนสัง จ.หนองบัวลำภู 39140 ประเทศไทย",
      "latitude": 16.8102778,
      "longitude": 102.6111111
    },
    {
      "name": "เขื่อนอุบลรัตน์",
      "address": "",
      "latitude": 16.7727778,
      "longitude": 102.6216667
    },
    {
      "name": "วัดพระบาทภูพานคำ",
      "address": "",
      "latitude": 16.7625,
      "longitude": 102.625
    },
    {
      "name": "บางแสน 2",
      "address": "เขื่อนอุบลรัตน์ อ.อุบลรัตน์ จ.ขอนแก่น 40250",
      "latitude": 16.7388889,
      "longitude": 102.6272222
    },
    {
      "name": "โคกงาม",
      "address": "โคกงาม อ.บ้านฝาง จ.ขอนแก่น 40270 ประเทศไทย",
      "latitude": 16.6538889,
      "longitude": 102.6080556
    },
    {
      "name": "อุทยานแห่งชาติน้ำพอง",
      "address": "บ้านผือ อ.หนองเรือ จ.ขอนแก่น 40240 ประเทศไทย",
      "latitude": 16.6244444,
      "longitude": 102.5700000
    },
    {
      "name": "พัทยา 2",
      "address": "หนองกุงเซิน อ.ภูเวียง จ.ขอนแก่น 40150",
      "latitude": 16.6363889,
      "longitude": 102.5452778
    },
    {
      "name": "อุทยานไดโนเสาร์ศรีเวียง",
      "address": "เมืองเก่าพัฒนา อ.ภูเวียง จ.ขอนแก่น 40150",
      "latitude": 16.6783333,
      "longitude": 102.3402778
    },
    {
      "name": "พิพิธภัณฑ์ไดโนเสาร์ภูเวียง",
      "address": "ในเมือง อ.ภูเวียง จ.ขอนแก่น 40150",
      "latitude": 16.6783333,
      "longitude": 102.2669444
    },
    {
      "name": "อุทยานแห่งชาติภูเวียง",
      "address": "ในเมือง อ.ภูเวียง จ.ขอนแก่น 40150",
      "latitude": 16.6844444,
      "longitude": 102.2450000
    },
    {
      "name": "เมืองโบราณโนนเมือง",
      "address": "ชุมแพ อ.ชุมแพ จ.ขอนแก่น 40130",
      "latitude": 16.5147222,
      "longitude": 102.0975
    },
    {
      "name": "ที่ทำการอุทยานแห่งชาติภูผาม่าน",
      "address": "",
      "latitude": 16.7563889,
      "longitude": 101.9675
    },
    {
      "name": "ผานกเค้า",
      "address": "ผานกเค้า อ.ภูกระดึง จ.เลย 42180",
      "latitude": 16.8477778,
      "longitude": 101.9397222
    }
  ]
}